20:43:36  $GNRMC,204336.00,A,4226.46205,N,07628.53191,W,0.051,,190820,,,A*79
<<< New Epoch [263] >>>
20:43:36  $GNVTG,,T,,M,0.051,N,0.095,K,A*35
20:43:36  $GNGGA,204336.00,4226.46205,N,07628.53191,W,1,08,1.58,310.8,M,-34.5,M,,*72
20:43:36  $GNGSA,A,3,13,15,18,,,,,,,,,,2.57,1.58,2.03*1E
20:43:36  $GNGSA,A,3,66,81,82,67,75,,,,,,,,2.57,1.58,2.03*11
20:43:36  $GPGSV,2,1,08,05,,,23,13,49,054,32,15,83,090,32,18,68,303,30*4A
20:43:36  $GPGSV,2,2,08,20,38,288,24,23,34,283,33,24,19,159,30,46,18,243,*7D
20:43:36  $GLGSV,3,1,10,65,06,055,18,66,61,014,38,67,47,266,29,68,01,245,*64
20:43:36  $GLGSV,3,2,10,74,02,004,,75,14,056,26,76,08,103,,81,58,196,25*66
20:43:36  $GLGSV,3,3,10,82,54,310,27,83,10,333,*61
20:43:36  $GNGLL,4226.46205,N,07628.53191,W,204336.00,A,A*66
20:43:37  $GNRMC,204337.00,A,4226.46184,N,07628.53179,W,0.063,,190820,,,A*75
<<< New Epoch [264] >>>
20:43:37  $GNVTG,,T,,M,0.063,N,0.116,K,A*3E
20:43:37  $GNGGA,204337.00,4226.46184,N,07628.53179,W,1,08,1.58,311.0,M,-34.5,M,,*76
20:43:37  $GNGSA,A,3,13,15,18,,,,,,,,,,2.57,1.58,2.03*1E
20:43:37  $GNGSA,A,3,66,81,82,67,75,,,,,,,,2.57,1.58,2.03*11
20:43:37  $GPGSV,2,1,08,05,,,23,13,49,054,31,15,83,090,33,18,68,303,31*49
20:43:37  $GPGSV,2,2,08,20,38,288,24,23,34,283,33,24,19,159,30,46,18,243,*7D
20:43:37  $GLGSV,3,1,10,65,06,055,18,66,61,014,39,67,47,266,30,68,01,245,*6D
20:43:37  $GLGSV,3,2,10,74,02,004,,75,14,056,27,76,08,103,,81,58,196,26*64
20:43:37  $GLGSV,3,3,10,82,54,310,26,83,10,333,*60
20:43:37  $GNGLL,4226.46184,N,07628.53179,W,204337.00,A,A*6B
20:43:38  $GNRMC,204338.00,A,4226.46165,N,07628.53167,W,0.067,,190820,,,A*7E
<<< New Epoch [265] >>>
20:43:38  $GNVTG,,T,,M,0.067,N,0.124,K,A*3B
20:43:38  $GNGGA,204338.00,4226.46165,N,07628.53167,W,1,08,1.58,311.1,M,-34.5,M,,*78
20:43:38  $GNGSA,A,3,13,15,18,,,,,,,,,,2.57,1.58,2.03*1E
20:43:38  $GNGSA,A,3,66,81,82,67,75,,,,,,,,2.57,1.58,2.03*11
20:43:38  $GPGSV,2,1,08,05,,,23,13,49,054,33,15,83,090,33,18,68,303,32*48
20:43:38  $GPGSV,2,2,08,20,38,288,24,23,34,283,33,24,19,159,28,46,18,243,*74
20:43:38  $GLGSV,3,1,10,65,06,055,19,66,61,014,39,67,47,266,30,68,01,245,*6C
20:43:38  $GLGSV,3,2,10,74,02,004,,75,14,056,27,76,08,103,,81,58,196,24*66
20:43:38  $GLGSV,3,3,10,82,54,310,26,83,10,333,*60
20:43:38  $GNGLL,4226.46165,N,07628.53167,W,204338.00,A,A*64
20:43:39  $GNRMC,204339.00,A,4226.46144,N,07628.53160,W,0.173,,190820,,,A*7F
<<< New Epoch [266] >>>
20:43:39  $GNVTG,,T,,M,0.173,N,0.320,K,A*39
20:43:39  $GNGGA,204339.00,4226.46144,N,07628.53160,W,1,08,1.58,311.0,M,-34.5,M,,*7C
20:43:39  $GNGSA,A,3,13,15,18,,,,,,,,,,2.57,1.58,2.03*1E
20:43:39  $GNGSA,A,3,66,81,82,67,75,,,,,,,,2.57,1.58,2.03*11
20:43:39  $GPGSV,2,1,08,05,,,23,13,49,054,33,15,83,090,33,18,68,303,32*48
20:43:39  $GPGSV,2,2,08,20,38,288,23,23,34,283,34,24,19,159,28,46,18,243,*74
20:43:39  $GLGSV,3,1,10,65,06,055,18,66,61,014,39,67,47,266,29,68,01,245,*65
20:43:39  $GLGSV,3,2,10,74,02,004,,75,14,056,28,76,08,103,,81,58,196,23*6E
20:43:39  $GLGSV,3,3,10,82,54,310,26,83,10,333,*60
20:43:39  $GNGLL,4226.46144,N,07628.53160,W,204339.00,A,A*61
20:43:40  $GNRMC,204340.00,A,4226.46123,N,07628.53152,W,0.054,,190820,,,A*75
<<< New Epoch [267] >>>
20:43:40  $GNVTG,,T,,M,0.054,N,0.100,K,A*3D
20:43:40  $GNGGA,204340.00,4226.46123,N,07628.53152,W,1,08,1.58,310.8,M,-34.5,M,,*7B
20:43:40  $GNGSA,A,3,13,15,18,,,,,,,,,,2.57,1.58,2.03*1E
20:43:40  $GNGSA,A,3,66,81,82,67,75,,,,,,,,2.57,1.58,2.03*11
20:43:40  $GPGSV,2,1,08,05,,,23,13,49,054,33,15,83,090,32,18,68,303,32*49
20:43:40  $GPGSV,2,2,08,20,38,288,22,23,34,283,35,24,19,159,28,46,18,243,*74
20:43:40  $GLGSV,3,1,10,65,06,055,17,66,61,014,39,67,47,266,29,68,01,245,*6A
20:43:40  $GLGSV,3,2,10,74,02,004,,75,14,056,28,76,08,103,,81,58,196,22*6F
20:43:40  $GLGSV,3,3,10,82,54,310,26,83,10,333,*60
20:43:40  $GNGLL,4226.46123,N,07628.53152,W,204340.00,A,A*6F
20:43:41  $GNRMC,204341.00,A,4226.46096,N,07628.53143,W,0.076,,190820,,,A*7B
<<< New Epoch [268] >>>
20:43:41  $GNVTG,,T,,M,0.076,N,0.140,K,A*39
20:43:41  $GNGGA,204341.00,4226.46096,N,07628.53143,W,1,08,1.58,310.6,M,-34.5,M,,*7B
20:43:41  $GNGSA,A,3,13,15,18,,,,,,,,,,2.57,1.58,2.03*1E
20:43:41  $GNGSA,A,3,66,81,82,67,75,,,,,,,,2.57,1.58,2.03*11
20:43:41  $GPGSV,2,1,08,05,,,23,13,49,054,32,15,83,090,33,18,68,303,33*48
20:43:41  $GPGSV,2,2,08,20,38,288,22,23,34,283,35,24,19,159,28,46,18,243,*74
20:43:41  $GLGSV,3,1,10,65,06,055,17,66,61,014,40,67,47,266,30,68,01,245,*6C
20:43:41  $GLGSV,3,2,10,74,02,004,,75,14,056,28,76,08,103,,81,58,196,22*6F
20:43:41  $GLGSV,3,3,10,82,54,310,27,83,10,333,*61
20:43:41  $GNGLL,4226.46096,N,07628.53143,W,204341.00,A,A*61
20:43:42  $GNRMC,204342.00,A,4226.46067,N,07628.53124,W,0.303,,190820,,,A*76
<<< New Epoch [269] >>>
20:43:42  $GNVTG,,T,,M,0.303,N,0.561,K,A*3F
20:43:42  $GNGGA,204342.00,4226.46067,N,07628.53124,W,1,08,1.58,310.4,M,-34.5,M,,*75
20:43:42  $GNGSA,A,3,13,15,18,,,,,,,,,,2.57,1.58,2.03*1E
20:43:42  $GNGSA,A,3,66,81,82,67,75,,,,,,,,2.57,1.58,2.03*11
20:43:42  $GPGSV,2,1,08,05,,,22,13,49,054,34,15,83,090,34,18,68,303,33*48
20:43:42  $GPGSV,2,2,08,20,38,288,23,23,34,283,35,24,19,159,28,46,18,243,*75
20:43:42  $GLGSV,3,1,10,65,06,055,18,66,61,014,40,67,47,266,30,68,01,245,*63
20:43:42  $GLGSV,3,2,10,74,02,004,,75,14,056,28,76,08,103,,81,58,196,21*6C
20:43:42  $GLGSV,3,3,10,82,54,310,27,83,10,333,*61
20:43:42  $GNGLL,4226.46067,N,07628.53124,W,204342.00,A,A*6D
20:43:43  $GNRMC,204343.00,A,4226.46041,N,07628.53095,W,0.168,,190820,,,A*77
<<< New Epoch [270] >>>
20:43:43  $GNVTG,,T,,M,0.168,N,0.311,K,A*31
20:43:43  $GNGGA,204343.00,4226.46041,N,07628.53095,W,1,08,1.58,310.4,M,-34.5,M,,*7B
20:43:43  $GNGSA,A,3,13,15,18,,,,,,,,,,2.57,1.58,2.03*1E
20:43:43  $GNGSA,A,3,66,81,82,67,75,,,,,,,,2.57,1.58,2.03*11
20:43:43  $GPGSV,2,1,08,05,,,22,13,49,054,34,15,83,090,34,18,68,303,32*49
20:43:43  $GPGSV,2,2,08,20,38,288,24,23,34,283,35,24,19,159,28,46,18,243,*72
20:43:43  $GLGSV,3,1,10,65,06,055,17,66,61,014,40,67,47,266,31,68,01,245,*6D
20:43:43  $GLGSV,3,2,10,74,02,004,,75,14,056,29,76,08,103,,81,58,196,20*6C
20:43:43  $GLGSV,3,3,10,82,54,310,28,83,10,333,*6E
20:43:43  $GNGLL,4226.46041,N,07628.53095,W,204343.00,A,A*63
20:43:44  $GNRMC,204344.00,A,4226.46002,N,07628.53067,W,0.236,,190820,,,A*72
<<< New Epoch [271] >>>
20:43:44  $GNVTG,,T,,M,0.236,N,0.438,K,A*35
20:43:44  $GNGGA,204344.00,4226.46002,N,07628.53067,W,1,08,1.58,310.3,M,-34.5,M,,*71
20:43:44  $GNGSA,A,3,13,15,18,,,,,,,,,,2.57,1.58,2.03*1E
20:43:44  $GNGSA,A,3,66,81,82,67,75,,,,,,,,2.57,1.58,2.03*11
20:43:44  $GPGSV,2,1,08,05,,,22,13,49,054,34,15,83,090,35,18,68,303,32*48
20:43:44  $GPGSV,2,2,08,20,38,288,25,23,34,283,35,24,19,159,28,46,18,243,32*72
20:43:44  $GLGSV,3,1,10,65,06,055,17,66,61,014,41,67,47,266,31,68,01,245,*6C
20:43:44  $GLGSV,3,2,10,74,02,004,,75,14,056,30,76,08,103,,81,58,196,20*64
20:43:44  $GLGSV,3,3,10,82,54,310,28,83,10,333,*6E
20:43:44  $GNGLL,4226.46002,N,07628.53067,W,204344.00,A,A*6E
20:43:45  $GNRMC,204345.00,A,4226.45963,N,07628.53043,W,0.032,,190820,,,A*7E
<<< New Epoch [272] >>>
20:43:45  $GNVTG,,T,,M,0.032,N,0.059,K,A*30
20:43:45  $GNGGA,204345.00,4226.45963,N,07628.53043,W,1,08,1.58,310.1,M,-34.5,M,,*79
20:43:45  $GNGSA,A,3,13,15,18,,,,,,,,,,2.58,1.58,2.03*11
20:43:45  $GNGSA,A,3,66,81,82,67,75,,,,,,,,2.58,1.58,2.03*1E
20:43:45  $GPGSV,2,1,08,05,,,20,13,49,054,34,15,83,090,35,18,68,303,32*4A
